{"schema": {"fields":[{"name":"index","type":"integer"},{"name":"city","type":"string"},{"name":"cloudiness","type":"number"},{"name":"country","type":"string"},{"name":"date","type":"integer"},{"name":"humidity","type":"integer"},{"name":"latitude","type":"integer"},{"name":"longitude","type":"integer"},{"name":"max_temp","type":"integer"},{"name":"wind_speed","type":"integer"}],"primaryKey":["index"],"pandas_version":"0.20.0"}, "data": [{"index":0,"city":"Ushuaia","cloudiness":40.0,"country":"AR","date":1542387600,"humidity":67,"latitude":-54,"longitude":-68,"max_temp":8,"wind_speed":17},{"index":1,"city":"Havelock","cloudiness":1.0,"country":"US","date":1542387480,"humidity":52,"latitude":34,"longitude":-76,"max_temp":12,"wind_speed":5},{"index":2,"city":"Tuktoyaktuk","cloudiness":75.0,"country":"CA","date":1542389340,"humidity":77,"latitude":69,"longitude":-133,"max_temp":-19,"wind_speed":2},{"index":3,"city":"Jamestown","cloudiness":0.0,"country":"AU","date":1542390556,"humidity":77,"latitude":-33,"longitude":138,"max_temp":6,"wind_speed":1},{"index":4,"city":"Ostrovnoy","cloudiness":76.0,"country":"RU","date":1542390785,"humidity":96,"latitude":68,"longitude":39,"max_temp":0,"wind_speed":6},{"index":5,"city":"Hermanus","cloudiness":32.0,"country":"ZA","date":1542390786,"humidity":66,"latitude":-34,"longitude":19,"max_temp":15,"wind_speed":2},{"index":6,"city":"Hithadhoo","cloudiness":12.0,"country":"MV","date":1542390786,"humidity":99,"latitude":0,"longitude":73,"max_temp":28,"wind_speed":5},{"index":7,"city":"Punta Arenas","cloudiness":75.0,"country":"CL","date":1542387600,"humidity":39,"latitude":-53,"longitude":-70,"max_temp":10,"wind_speed":12},{"index":8,"city":"Zhigansk","cloudiness":0.0,"country":"RU","date":1542390786,"humidity":76,"latitude":66,"longitude":123,"max_temp":-27,"wind_speed":1},{"index":9,"city":"Hilo","cloudiness":1.0,"country":"US","date":1542387360,"humidity":75,"latitude":19,"longitude":-155,"max_temp":20,"wind_speed":2},{"index":10,"city":"Narsaq","cloudiness":75.0,"country":"GL","date":1542387000,"humidity":35,"latitude":60,"longitude":-46,"max_temp":4,"wind_speed":1},{"index":11,"city":"Puerto Ayora","cloudiness":75.0,"country":"EC","date":1542387600,"humidity":73,"latitude":0,"longitude":-90,"max_temp":25,"wind_speed":8},{"index":12,"city":"Sur","cloudiness":0.0,"country":"OM","date":1542390787,"humidity":100,"latitude":22,"longitude":59,"max_temp":23,"wind_speed":1},{"index":13,"city":"Burdur","cloudiness":20.0,"country":"TR","date":1542388800,"humidity":55,"latitude":37,"longitude":30,"max_temp":4,"wind_speed":4},{"index":14,"city":"Albany","cloudiness":90.0,"country":"US","date":1542387780,"humidity":77,"latitude":42,"longitude":-73,"max_temp":1,"wind_speed":2},{"index":15,"city":"Nikolskoye","cloudiness":75.0,"country":"RU","date":1542387600,"humidity":81,"latitude":59,"longitude":30,"max_temp":7,"wind_speed":4},{"index":16,"city":"Atuona","cloudiness":0.0,"country":"PF","date":1542390788,"humidity":99,"latitude":-9,"longitude":-139,"max_temp":27,"wind_speed":7},{"index":17,"city":"Busselton","cloudiness":44.0,"country":"AU","date":1542390788,"humidity":78,"latitude":-33,"longitude":115,"max_temp":22,"wind_speed":5},{"index":18,"city":"Arraial do Cabo","cloudiness":40.0,"country":"BR","date":1542387600,"humidity":83,"latitude":-22,"longitude":-42,"max_temp":27,"wind_speed":4},{"index":19,"city":"Yellowknife","cloudiness":20.0,"country":"CA","date":1542387600,"humidity":83,"latitude":62,"longitude":-114,"max_temp":-21,"wind_speed":2},{"index":20,"city":"Margate","cloudiness":20.0,"country":"AU","date":1542389400,"humidity":93,"latitude":-43,"longitude":147,"max_temp":7,"wind_speed":3},{"index":21,"city":"Loyga","cloudiness":92.0,"country":"RU","date":1542390789,"humidity":96,"latitude":61,"longitude":44,"max_temp":4,"wind_speed":6},{"index":22,"city":"Russell","cloudiness":0.0,"country":"AR","date":1542387600,"humidity":31,"latitude":-33,"longitude":-68,"max_temp":25,"wind_speed":3},{"index":23,"city":"Bluff","cloudiness":0.0,"country":"AU","date":1542390789,"humidity":70,"latitude":-23,"longitude":149,"max_temp":21,"wind_speed":3},{"index":24,"city":"Upernavik","cloudiness":80.0,"country":"GL","date":1542390789,"humidity":100,"latitude":72,"longitude":-56,"max_temp":-6,"wind_speed":4},{"index":25,"city":"Qaanaaq","cloudiness":0.0,"country":"GL","date":1542390789,"humidity":100,"latitude":77,"longitude":-69,"max_temp":-24,"wind_speed":2},{"index":26,"city":"Katsuura","cloudiness":100.0,"country":"JP","date":1542390790,"humidity":90,"latitude":33,"longitude":134,"max_temp":12,"wind_speed":1},{"index":27,"city":"Rikitea","cloudiness":32.0,"country":"PF","date":1542390790,"humidity":96,"latitude":-23,"longitude":-134,"max_temp":24,"wind_speed":5},{"index":28,"city":"Pandi","cloudiness":20.0,"country":"PH","date":1542387600,"humidity":78,"latitude":14,"longitude":120,"max_temp":27,"wind_speed":2},{"index":29,"city":"Saint George","cloudiness":75.0,"country":"GR","date":1542388800,"humidity":62,"latitude":39,"longitude":22,"max_temp":12,"wind_speed":8},{"index":30,"city":"Dikson","cloudiness":88.0,"country":"RU","date":1542390790,"humidity":100,"latitude":73,"longitude":80,"max_temp":-7,"wind_speed":15},{"index":31,"city":"Hobart","cloudiness":20.0,"country":"AU","date":1542389400,"humidity":93,"latitude":-42,"longitude":147,"max_temp":7,"wind_speed":3},{"index":32,"city":"Nome","cloudiness":1.0,"country":"US","date":1542388500,"humidity":40,"latitude":30,"longitude":-94,"max_temp":18,"wind_speed":2},{"index":33,"city":"Erenhot","cloudiness":8.0,"country":"CN","date":1542390791,"humidity":71,"latitude":43,"longitude":111,"max_temp":-11,"wind_speed":4},{"index":34,"city":"Anadyr","cloudiness":40.0,"country":"RU","date":1542387600,"humidity":85,"latitude":64,"longitude":177,"max_temp":-12,"wind_speed":8},{"index":35,"city":"Georgetown","cloudiness":75.0,"country":"GY","date":1542387600,"humidity":70,"latitude":6,"longitude":-58,"max_temp":30,"wind_speed":7},{"index":36,"city":"Port Elizabeth","cloudiness":75.0,"country":"US","date":1542388740,"humidity":62,"latitude":39,"longitude":-74,"max_temp":8,"wind_speed":9},{"index":37,"city":"Thompson","cloudiness":5.0,"country":"CA","date":1542387600,"humidity":76,"latitude":55,"longitude":-97,"max_temp":-24,"wind_speed":3},{"index":38,"city":"Juegang","cloudiness":0.0,"country":"CN","date":1542390792,"humidity":99,"latitude":32,"longitude":121,"max_temp":12,"wind_speed":6},{"index":39,"city":"Bambous Virieux","cloudiness":40.0,"country":"MU","date":1542387600,"humidity":78,"latitude":-20,"longitude":57,"max_temp":24,"wind_speed":5},{"index":40,"city":"Kodiak","cloudiness":1.0,"country":"US","date":1542387180,"humidity":63,"latitude":39,"longitude":-94,"max_temp":9,"wind_speed":2},{"index":41,"city":"Saint-Philippe","cloudiness":90.0,"country":"CA","date":1542389040,"humidity":86,"latitude":45,"longitude":-73,"max_temp":-2,"wind_speed":4},{"index":42,"city":"Raudeberg","cloudiness":75.0,"country":"NO","date":1542388800,"humidity":93,"latitude":61,"longitude":5,"max_temp":12,"wind_speed":8},{"index":43,"city":"Etchoropo","cloudiness":24.0,"country":"MX","date":1542390793,"humidity":46,"latitude":26,"longitude":-109,"max_temp":24,"wind_speed":2},{"index":44,"city":"Salinopolis","cloudiness":24.0,"country":"BR","date":1542390793,"humidity":85,"latitude":0,"longitude":-47,"max_temp":29,"wind_speed":7},{"index":45,"city":"Gigmoto","cloudiness":0.0,"country":"PH","date":1542390794,"humidity":100,"latitude":13,"longitude":124,"max_temp":25,"wind_speed":3},{"index":46,"city":"Cameta","cloudiness":1.0,"country":"US","date":1542387180,"humidity":46,"latitude":33,"longitude":-90,"max_temp":13,"wind_speed":3},{"index":47,"city":"Ler","cloudiness":90.0,"country":"NO","date":1542388800,"humidity":100,"latitude":63,"longitude":10,"max_temp":10,"wind_speed":2},{"index":48,"city":"Oranjemund","cloudiness":12.0,"country":"ZA","date":1542390794,"humidity":95,"latitude":-28,"longitude":16,"max_temp":16,"wind_speed":9},{"index":49,"city":"Yinchuan","cloudiness":0.0,"country":"CN","date":1542390794,"humidity":70,"latitude":38,"longitude":106,"max_temp":-9,"wind_speed":1},{"index":50,"city":"Bredasdorp","cloudiness":20.0,"country":"ZA","date":1542387600,"humidity":56,"latitude":-34,"longitude":20,"max_temp":21,"wind_speed":8},{"index":51,"city":"Kapaa","cloudiness":75.0,"country":"US","date":1542387360,"humidity":79,"latitude":22,"longitude":-159,"max_temp":24,"wind_speed":6},{"index":52,"city":"Teguldet","cloudiness":0.0,"country":"RU","date":1542390795,"humidity":69,"latitude":57,"longitude":88,"max_temp":-18,"wind_speed":1},{"index":53,"city":"Otradnoye","cloudiness":75.0,"country":"RU","date":1542387600,"humidity":81,"latitude":59,"longitude":30,"max_temp":7,"wind_speed":4},{"index":54,"city":"Ossora","cloudiness":36.0,"country":"RU","date":1542390795,"humidity":100,"latitude":59,"longitude":163,"max_temp":-11,"wind_speed":3},{"index":55,"city":"Chuy","cloudiness":0.0,"country":"UY","date":1542390795,"humidity":77,"latitude":-33,"longitude":-53,"max_temp":19,"wind_speed":5},{"index":56,"city":"Strelka","cloudiness":56.0,"country":"RU","date":1542390796,"humidity":74,"latitude":58,"longitude":93,"max_temp":-14,"wind_speed":3},{"index":57,"city":"Lavrentiya","cloudiness":88.0,"country":"RU","date":1542390796,"humidity":100,"latitude":65,"longitude":-170,"max_temp":0,"wind_speed":8},{"index":58,"city":"Matagami","cloudiness":0.0,"country":"NG","date":1542390796,"humidity":49,"latitude":9,"longitude":8,"max_temp":23,"wind_speed":2},{"index":59,"city":"Port Shepstone","cloudiness":80.0,"country":"ZA","date":1542390796,"humidity":92,"latitude":-30,"longitude":30,"max_temp":21,"wind_speed":2},{"index":60,"city":"Pozo Colorado","cloudiness":48.0,"country":"PY","date":1542390796,"humidity":57,"latitude":-23,"longitude":-58,"max_temp":34,"wind_speed":2},{"index":61,"city":"Port Alfred","cloudiness":0.0,"country":"ZA","date":1542390796,"humidity":96,"latitude":-33,"longitude":26,"max_temp":19,"wind_speed":1},{"index":62,"city":"Cherskiy","cloudiness":0.0,"country":"RU","date":1542390797,"humidity":28,"latitude":68,"longitude":161,"max_temp":-28,"wind_speed":1},{"index":63,"city":"Itaguai","cloudiness":90.0,"country":"BR","date":1542387600,"humidity":78,"latitude":-22,"longitude":-43,"max_temp":26,"wind_speed":5},{"index":64,"city":"Pyay","cloudiness":0.0,"country":"MM","date":1542390513,"humidity":85,"latitude":18,"longitude":95,"max_temp":23,"wind_speed":1},{"index":65,"city":"Tasiilaq","cloudiness":92.0,"country":"GL","date":1542387000,"humidity":43,"latitude":65,"longitude":-37,"max_temp":1,"wind_speed":13},{"index":66,"city":"Mar del Plata","cloudiness":32.0,"country":"AR","date":1542390551,"humidity":35,"latitude":-46,"longitude":-67,"max_temp":17,"wind_speed":6},{"index":67,"city":"Avarua","cloudiness":75.0,"country":"CK","date":1542387600,"humidity":88,"latitude":-21,"longitude":-159,"max_temp":23,"wind_speed":1},{"index":68,"city":"Edd","cloudiness":0.0,"country":"ER","date":1542390798,"humidity":64,"latitude":13,"longitude":41,"max_temp":23,"wind_speed":1},{"index":69,"city":"Ust-Nera","cloudiness":48.0,"country":"RU","date":1542390798,"humidity":67,"latitude":64,"longitude":143,"max_temp":-27,"wind_speed":0},{"index":70,"city":"Monticello","cloudiness":90.0,"country":"US","date":1542390300,"humidity":75,"latitude":45,"longitude":-93,"max_temp":-1,"wind_speed":2},{"index":71,"city":"Sainte-Rose","cloudiness":90.0,"country":"CA","date":1542389040,"humidity":86,"latitude":45,"longitude":-73,"max_temp":-3,"wind_speed":4},{"index":72,"city":"Diveyevo","cloudiness":8.0,"country":"RU","date":1542390799,"humidity":64,"latitude":55,"longitude":43,"max_temp":-12,"wind_speed":1},{"index":73,"city":"Ribeira Grande","cloudiness":40.0,"country":"PT","date":1542389400,"humidity":67,"latitude":38,"longitude":-28,"max_temp":16,"wind_speed":10},{"index":74,"city":"Vaini","cloudiness":36.0,"country":"IN","date":1542390799,"humidity":67,"latitude":15,"longitude":74,"max_temp":25,"wind_speed":3},{"index":75,"city":"Butaritari","cloudiness":88.0,"country":"KI","date":1542390799,"humidity":100,"latitude":3,"longitude":172,"max_temp":28,"wind_speed":4},{"index":76,"city":"Urengoy","cloudiness":80.0,"country":"RU","date":1542390799,"humidity":82,"latitude":65,"longitude":78,"max_temp":-12,"wind_speed":5},{"index":77,"city":"Rawson","cloudiness":32.0,"country":"AR","date":1542390799,"humidity":34,"latitude":-43,"longitude":-65,"max_temp":22,"wind_speed":3},{"index":78,"city":"Luderitz","cloudiness":8.0,"country":"NA","date":1542390800,"humidity":58,"latitude":-26,"longitude":15,"max_temp":19,"wind_speed":12},{"index":79,"city":"Warri","cloudiness":68.0,"country":"NG","date":1542390800,"humidity":69,"latitude":5,"longitude":5,"max_temp":29,"wind_speed":2},{"index":80,"city":"Ilhabela","cloudiness":0.0,"country":"BR","date":1542390800,"humidity":100,"latitude":-23,"longitude":-45,"max_temp":22,"wind_speed":5},{"index":81,"city":"Manggar","cloudiness":76.0,"country":"ID","date":1542390800,"humidity":98,"latitude":-2,"longitude":108,"max_temp":26,"wind_speed":1},{"index":82,"city":"Naze","cloudiness":40.0,"country":"NG","date":1542387600,"humidity":70,"latitude":5,"longitude":7,"max_temp":31,"wind_speed":2},{"index":83,"city":"Kerman","cloudiness":75.0,"country":"IR","date":1542387600,"humidity":29,"latitude":30,"longitude":57,"max_temp":17,"wind_speed":3},{"index":84,"city":"Meulaboh","cloudiness":80.0,"country":"ID","date":1542390802,"humidity":100,"latitude":4,"longitude":96,"max_temp":25,"wind_speed":1},{"index":85,"city":"Bako","cloudiness":8.0,"country":"NG","date":1542390803,"humidity":53,"latitude":9,"longitude":6,"max_temp":27,"wind_speed":1},{"index":86,"city":"Sao Geraldo do Araguaia","cloudiness":32.0,"country":"BR","date":1542390803,"humidity":68,"latitude":-6,"longitude":-48,"max_temp":30,"wind_speed":3},{"index":87,"city":"Grindavik","cloudiness":90.0,"country":"IS","date":1542389400,"humidity":87,"latitude":63,"longitude":-22,"max_temp":9,"wind_speed":18},{"index":88,"city":"Coquimbo","cloudiness":20.0,"country":"CL","date":1542387600,"humidity":68,"latitude":-29,"longitude":-71,"max_temp":19,"wind_speed":5},{"index":89,"city":"Itambacuri","cloudiness":76.0,"country":"BR","date":1542390805,"humidity":60,"latitude":-18,"longitude":-41,"max_temp":29,"wind_speed":3},{"index":90,"city":"Los Llanos de Aridane","cloudiness":40.0,"country":"ES","date":1542389400,"humidity":60,"latitude":28,"longitude":-17,"max_temp":21,"wind_speed":2},{"index":91,"city":"Sao Filipe","cloudiness":56.0,"country":"CV","date":1542390806,"humidity":94,"latitude":14,"longitude":-24,"max_temp":24,"wind_speed":5},{"index":92,"city":"Guerrero Negro","cloudiness":12.0,"country":"MX","date":1542390806,"humidity":49,"latitude":27,"longitude":-114,"max_temp":21,"wind_speed":1},{"index":93,"city":"Cape Town","cloudiness":75.0,"country":"ZA","date":1542387600,"humidity":63,"latitude":-33,"longitude":18,"max_temp":19,"wind_speed":7},{"index":94,"city":"Beidao","cloudiness":8.0,"country":"CN","date":1542390807,"humidity":82,"latitude":34,"longitude":105,"max_temp":-6,"wind_speed":0},{"index":95,"city":"Talnakh","cloudiness":64.0,"country":"RU","date":1542390807,"humidity":76,"latitude":69,"longitude":88,"max_temp":-21,"wind_speed":3},{"index":96,"city":"Abay","cloudiness":44.0,"country":"KZ","date":1542390807,"humidity":76,"latitude":49,"longitude":72,"max_temp":-13,"wind_speed":2},{"index":97,"city":"Clyde River","cloudiness":90.0,"country":"CA","date":1542387600,"humidity":83,"latitude":70,"longitude":-68,"max_temp":-22,"wind_speed":4},{"index":98,"city":"Hasaki","cloudiness":75.0,"country":"JP","date":1542387600,"humidity":87,"latitude":35,"longitude":140,"max_temp":11,"wind_speed":0},{"index":99,"city":"Hofn","cloudiness":90.0,"country":"IS","date":1542387600,"humidity":81,"latitude":64,"longitude":-15,"max_temp":8,"wind_speed":7},{"index":100,"city":"Sidrolandia","cloudiness":75.0,"country":"BR","date":1542387600,"humidity":100,"latitude":-20,"longitude":-54,"max_temp":23,"wind_speed":2},{"index":101,"city":"Kamenka","cloudiness":0.0,"country":"RU","date":1542390809,"humidity":56,"latitude":53,"longitude":44,"max_temp":-14,"wind_speed":1},{"index":102,"city":"Ilulissat","cloudiness":75.0,"country":"GL","date":1542387000,"humidity":41,"latitude":69,"longitude":-51,"max_temp":-5,"wind_speed":6},{"index":103,"city":"Taoudenni","cloudiness":8.0,"country":"ML","date":1542390809,"humidity":31,"latitude":22,"longitude":-3,"max_temp":25,"wind_speed":3},{"index":104,"city":"Kheralu","cloudiness":0.0,"country":"IN","date":1542390809,"humidity":46,"latitude":23,"longitude":72,"max_temp":19,"wind_speed":1},{"index":105,"city":"Magadan","cloudiness":40.0,"country":"RU","date":1542387600,"humidity":83,"latitude":59,"longitude":150,"max_temp":-25,"wind_speed":1},{"index":106,"city":"Husavik","cloudiness":56.0,"country":"CA","date":1542390810,"humidity":87,"latitude":50,"longitude":-96,"max_temp":-6,"wind_speed":6},{"index":107,"city":"Longyearbyen","cloudiness":0.0,"country":"NO","date":1542387000,"humidity":72,"latitude":78,"longitude":15,"max_temp":-11,"wind_speed":6},{"index":108,"city":"Kollam","cloudiness":75.0,"country":"IN","date":1542389400,"humidity":88,"latitude":8,"longitude":76,"max_temp":26,"wind_speed":1},{"index":109,"city":"Yarmouth","cloudiness":90.0,"country":"GB","date":1542388800,"humidity":93,"latitude":50,"longitude":-1,"max_temp":11,"wind_speed":4},{"index":110,"city":"Tiksi","cloudiness":68.0,"country":"RU","date":1542390812,"humidity":64,"latitude":71,"longitude":128,"max_temp":-17,"wind_speed":3},{"index":111,"city":"Pevek","cloudiness":8.0,"country":"RU","date":1542390812,"humidity":99,"latitude":69,"longitude":170,"max_temp":-22,"wind_speed":1},{"index":112,"city":"Ballina","cloudiness":75.0,"country":"IE","date":1542389400,"humidity":93,"latitude":54,"longitude":-9,"max_temp":11,"wind_speed":8},{"index":113,"city":"Phuthaditjhaba","cloudiness":92.0,"country":"ZA","date":1542390813,"humidity":28,"latitude":-28,"longitude":28,"max_temp":17,"wind_speed":1},{"index":114,"city":"Banda Aceh","cloudiness":68.0,"country":"ID","date":1542390813,"humidity":100,"latitude":5,"longitude":95,"max_temp":23,"wind_speed":1},{"index":115,"city":"Sao Joao da Barra","cloudiness":75.0,"country":"BR","date":1542387600,"humidity":65,"latitude":-21,"longitude":-41,"max_temp":28,"wind_speed":6},{"index":116,"city":"Oksfjord","cloudiness":75.0,"country":"NO","date":1542388800,"humidity":87,"latitude":70,"longitude":22,"max_temp":9,"wind_speed":1},{"index":117,"city":"Bethel","cloudiness":90.0,"country":"US","date":1542387180,"humidity":95,"latitude":60,"longitude":-161,"max_temp":0,"wind_speed":3},{"index":118,"city":"Srednekolymsk","cloudiness":24.0,"country":"RU","date":1542390816,"humidity":71,"latitude":67,"longitude":153,"max_temp":-26,"wind_speed":1},{"index":119,"city":"Sitka","cloudiness":0.0,"country":"US","date":1542390816,"humidity":44,"latitude":37,"longitude":-99,"max_temp":12,"wind_speed":4},{"index":120,"city":"Castro","cloudiness":76.0,"country":"CL","date":1542390817,"humidity":74,"latitude":-42,"longitude":-73,"max_temp":11,"wind_speed":2},{"index":121,"city":"Barrow","cloudiness":20.0,"country":"AR","date":1542390817,"humidity":46,"latitude":-38,"longitude":-60,"max_temp":20,"wind_speed":6},{"index":122,"city":"Norman Wells","cloudiness":75.0,"country":"CA","date":1542387600,"humidity":74,"latitude":65,"longitude":-126,"max_temp":-33,"wind_speed":2},{"index":123,"city":"Port Lincoln","cloudiness":0.0,"country":"AU","date":1542390670,"humidity":100,"latitude":-34,"longitude":135,"max_temp":12,"wind_speed":4},{"index":124,"city":"Mount Isa","cloudiness":75.0,"country":"AU","date":1542389400,"humidity":58,"latitude":-20,"longitude":139,"max_temp":28,"wind_speed":2},{"index":125,"city":"Pedra","cloudiness":76.0,"country":"BR","date":1542390819,"humidity":44,"latitude":-8,"longitude":-36,"max_temp":29,"wind_speed":4},{"index":126,"city":"Chokurdakh","cloudiness":76.0,"country":"RU","date":1542390820,"humidity":76,"latitude":70,"longitude":147,"max_temp":-19,"wind_speed":2},{"index":127,"city":"Mogadishu","cloudiness":56.0,"country":"SO","date":1542390821,"humidity":100,"latitude":2,"longitude":45,"max_temp":27,"wind_speed":3},{"index":128,"city":"Fochville","cloudiness":92.0,"country":"ZA","date":1542390821,"humidity":32,"latitude":-26,"longitude":27,"max_temp":25,"wind_speed":1},{"index":129,"city":"Kaitangata","cloudiness":56.0,"country":"NZ","date":1542390822,"humidity":90,"latitude":-46,"longitude":169,"max_temp":9,"wind_speed":5},{"index":130,"city":"Medvedka","cloudiness":92.0,"country":"RU","date":1542390822,"humidity":96,"latitude":61,"longitude":46,"max_temp":3,"wind_speed":6},{"index":131,"city":"New Norfolk","cloudiness":20.0,"country":"AU","date":1542389400,"humidity":93,"latitude":-42,"longitude":147,"max_temp":7,"wind_speed":3},{"index":132,"city":"Fontem","cloudiness":24.0,"country":"CM","date":1542390824,"humidity":75,"latitude":5,"longitude":9,"max_temp":20,"wind_speed":1},{"index":133,"city":"Garissa","cloudiness":80.0,"country":"KE","date":1542390824,"humidity":83,"latitude":0,"longitude":39,"max_temp":26,"wind_speed":4},{"index":134,"city":"Isangel","cloudiness":20.0,"country":"VU","date":1542390825,"humidity":100,"latitude":-19,"longitude":169,"max_temp":23,"wind_speed":4},{"index":135,"city":"Aklavik","cloudiness":5.0,"country":"CA","date":1542387600,"humidity":75,"latitude":68,"longitude":-135,"max_temp":-26,"wind_speed":1},{"index":136,"city":"Ulladulla","cloudiness":90.0,"country":"AU","date":1542387600,"humidity":100,"latitude":-35,"longitude":150,"max_temp":13,"wind_speed":1},{"index":137,"city":"Beneditinos","cloudiness":0.0,"country":"BR","date":1542387600,"humidity":28,"latitude":-5,"longitude":-42,"max_temp":36,"wind_speed":3},{"index":138,"city":"Manavalakurichi","cloudiness":75.0,"country":"IN","date":1542389400,"humidity":88,"latitude":8,"longitude":77,"max_temp":26,"wind_speed":1},{"index":139,"city":"Santa Rosa","cloudiness":0.0,"country":"AR","date":1542390831,"humidity":47,"latitude":-36,"longitude":-64,"max_temp":21,"wind_speed":9},{"index":140,"city":"Puga","cloudiness":0.0,"country":"MX","date":1542390832,"humidity":70,"latitude":20,"longitude":-98,"max_temp":17,"wind_speed":1},{"index":141,"city":"Namtsy","cloudiness":68.0,"country":"RU","date":1542390833,"humidity":63,"latitude":62,"longitude":129,"max_temp":-25,"wind_speed":1},{"index":142,"city":"Nueva Gerona","cloudiness":32.0,"country":"CU","date":1542390834,"humidity":88,"latitude":21,"longitude":-82,"max_temp":27,"wind_speed":6},{"index":143,"city":"Port Hardy","cloudiness":75.0,"country":"CA","date":1542388500,"humidity":93,"latitude":50,"longitude":-127,"max_temp":7,"wind_speed":2},{"index":144,"city":"Lebu","cloudiness":32.0,"country":"ET","date":1542390835,"humidity":87,"latitude":8,"longitude":38,"max_temp":11,"wind_speed":1},{"index":145,"city":"Ancud","cloudiness":80.0,"country":"CL","date":1542390836,"humidity":68,"latitude":-41,"longitude":-73,"max_temp":11,"wind_speed":2},{"index":146,"city":"Pisco","cloudiness":0.0,"country":"PE","date":1542387600,"humidity":30,"latitude":-13,"longitude":-76,"max_temp":22,"wind_speed":4},{"index":147,"city":"Roald","cloudiness":75.0,"country":"NO","date":1542388800,"humidity":87,"latitude":62,"longitude":6,"max_temp":12,"wind_speed":7},{"index":148,"city":"Provideniya","cloudiness":80.0,"country":"RU","date":1542390837,"humidity":100,"latitude":64,"longitude":-173,"max_temp":1,"wind_speed":10},{"index":149,"city":"Richards Bay","cloudiness":0.0,"country":"ZA","date":1542390838,"humidity":66,"latitude":-28,"longitude":32,"max_temp":26,"wind_speed":3},{"index":150,"city":"Grafton","cloudiness":92.0,"country":"AU","date":1542390838,"humidity":100,"latitude":-29,"longitude":152,"max_temp":18,"wind_speed":1},{"index":151,"city":"Makasar","cloudiness":20.0,"country":"ID","date":1542389400,"humidity":65,"latitude":-6,"longitude":106,"max_temp":28,"wind_speed":2},{"index":152,"city":"Cabo San Lucas","cloudiness":40.0,"country":"MX","date":1542386400,"humidity":53,"latitude":22,"longitude":-109,"max_temp":25,"wind_speed":2},{"index":153,"city":"Novaya Ladoga","cloudiness":92.0,"country":"RU","date":1542390841,"humidity":93,"latitude":60,"longitude":32,"max_temp":4,"wind_speed":4},{"index":154,"city":"Tamiahua","cloudiness":0.0,"country":"MX","date":1542390841,"humidity":100,"latitude":21,"longitude":-97,"max_temp":20,"wind_speed":3},{"index":155,"city":"Fort Walton Beach","cloudiness":1.0,"country":"US","date":1542387360,"humidity":38,"latitude":30,"longitude":-86,"max_temp":12,"wind_speed":2},{"index":156,"city":"Leningradskiy","cloudiness":20.0,"country":"RU","date":1542390842,"humidity":100,"latitude":69,"longitude":178,"max_temp":-13,"wind_speed":3},{"index":157,"city":"Nanortalik","cloudiness":64.0,"country":"GL","date":1542390843,"humidity":89,"latitude":60,"longitude":-45,"max_temp":0,"wind_speed":3},{"index":158,"city":"Touros","cloudiness":44.0,"country":"BR","date":1542390619,"humidity":67,"latitude":-5,"longitude":-35,"max_temp":29,"wind_speed":6},{"index":159,"city":"Cabedelo","cloudiness":75.0,"country":"BR","date":1542387600,"humidity":58,"latitude":-6,"longitude":-34,"max_temp":30,"wind_speed":4},{"index":160,"city":"Terrace Bay","cloudiness":90.0,"country":"CA","date":1542389220,"humidity":85,"latitude":48,"longitude":-87,"max_temp":-4,"wind_speed":7},{"index":161,"city":"Samana","cloudiness":90.0,"country":"EC","date":1542389700,"humidity":94,"latitude":0,"longitude":-76,"max_temp":23,"wind_speed":2},{"index":162,"city":"Akdepe","cloudiness":0.0,"country":"TM","date":1542387600,"humidity":58,"latitude":42,"longitude":59,"max_temp":0,"wind_speed":5},{"index":163,"city":"Ahipara","cloudiness":36.0,"country":"NZ","date":1542390846,"humidity":100,"latitude":-35,"longitude":173,"max_temp":10,"wind_speed":1},{"index":164,"city":"Monteagudo","cloudiness":75.0,"country":"BO","date":1542387600,"humidity":40,"latitude":-19,"longitude":-63,"max_temp":32,"wind_speed":1},{"index":165,"city":"Mayo","cloudiness":75.0,"country":"CA","date":1542387600,"humidity":68,"latitude":63,"longitude":-135,"max_temp":-29,"wind_speed":1},{"index":166,"city":"Tynda","cloudiness":0.0,"country":"RU","date":1542390848,"humidity":66,"latitude":55,"longitude":124,"max_temp":-26,"wind_speed":1},{"index":167,"city":"Severo-Kurilsk","cloudiness":32.0,"country":"RU","date":1542390848,"humidity":100,"latitude":50,"longitude":156,"max_temp":1,"wind_speed":1},{"index":168,"city":"San Ciro de Acosta","cloudiness":0.0,"country":"MX","date":1542390849,"humidity":68,"latitude":21,"longitude":-99,"max_temp":15,"wind_speed":1},{"index":169,"city":"Faanui","cloudiness":92.0,"country":"PF","date":1542390849,"humidity":99,"latitude":-16,"longitude":-151,"max_temp":27,"wind_speed":4},{"index":170,"city":"Paracatu","cloudiness":36.0,"country":"BR","date":1542390763,"humidity":62,"latitude":-17,"longitude":-46,"max_temp":30,"wind_speed":4},{"index":171,"city":"Mataura","cloudiness":76.0,"country":"NZ","date":1542390851,"humidity":99,"latitude":-46,"longitude":168,"max_temp":8,"wind_speed":1},{"index":172,"city":"Haines Junction","cloudiness":56.0,"country":"CA","date":1542390852,"humidity":93,"latitude":60,"longitude":-137,"max_temp":-13,"wind_speed":0},{"index":173,"city":"Ponta do Sol","cloudiness":44.0,"country":"BR","date":1542390852,"humidity":88,"latitude":-20,"longitude":-46,"max_temp":25,"wind_speed":2},{"index":174,"city":"San Cristobal","cloudiness":40.0,"country":"EC","date":1542387600,"humidity":67,"latitude":0,"longitude":-78,"max_temp":17,"wind_speed":3},{"index":175,"city":"Adrar","cloudiness":0.0,"country":"DZ","date":1542387600,"humidity":22,"latitude":27,"longitude":0,"max_temp":27,"wind_speed":3},{"index":176,"city":"Maraba","cloudiness":20.0,"country":"BR","date":1542387600,"humidity":55,"latitude":-5,"longitude":-49,"max_temp":33,"wind_speed":3},{"index":177,"city":"Porto Belo","cloudiness":20.0,"country":"BR","date":1542387600,"humidity":69,"latitude":-27,"longitude":-48,"max_temp":28,"wind_speed":6},{"index":178,"city":"Cordoba","cloudiness":32.0,"country":"CO","date":1542390856,"humidity":82,"latitude":5,"longitude":-73,"max_temp":18,"wind_speed":0},{"index":179,"city":"Souillac","cloudiness":0.0,"country":"FR","date":1542389400,"humidity":82,"latitude":45,"longitude":0,"max_temp":16,"wind_speed":2},{"index":180,"city":"Pringsewu","cloudiness":8.0,"country":"ID","date":1542390856,"humidity":89,"latitude":-5,"longitude":104,"max_temp":23,"wind_speed":1},{"index":181,"city":"Caconda","cloudiness":0.0,"country":"AO","date":1542390857,"humidity":19,"latitude":-13,"longitude":15,"max_temp":23,"wind_speed":2},{"index":182,"city":"Esperance","cloudiness":20.0,"country":"TT","date":1542387600,"humidity":66,"latitude":10,"longitude":-61,"max_temp":31,"wind_speed":6},{"index":183,"city":"Dwarka","cloudiness":0.0,"country":"IN","date":1542389400,"humidity":63,"latitude":28,"longitude":77,"max_temp":18,"wind_speed":2},{"index":184,"city":"Puerto del Rosario","cloudiness":20.0,"country":"ES","date":1542389400,"humidity":53,"latitude":28,"longitude":-13,"max_temp":22,"wind_speed":5},{"index":185,"city":"Khandyga","cloudiness":88.0,"country":"RU","date":1542390857,"humidity":75,"latitude":62,"longitude":135,"max_temp":-17,"wind_speed":1},{"index":186,"city":"Flin Flon","cloudiness":5.0,"country":"CA","date":1542387600,"humidity":64,"latitude":54,"longitude":-101,"max_temp":-20,"wind_speed":2},{"index":187,"city":"Vardo","cloudiness":40.0,"country":"US","date":1542390000,"humidity":64,"latitude":39,"longitude":-77,"max_temp":6,"wind_speed":7},{"index":188,"city":"Maniitsoq","cloudiness":36.0,"country":"GL","date":1542390858,"humidity":100,"latitude":65,"longitude":-52,"max_temp":-8,"wind_speed":2},{"index":189,"city":"Fukue","cloudiness":75.0,"country":"JP","date":1542387600,"humidity":82,"latitude":35,"longitude":136,"max_temp":13,"wind_speed":3},{"index":190,"city":"Okha","cloudiness":88.0,"country":"RU","date":1542390858,"humidity":100,"latitude":53,"longitude":142,"max_temp":-3,"wind_speed":8},{"index":191,"city":"Grand Gaube","cloudiness":40.0,"country":"MU","date":1542387600,"humidity":78,"latitude":-20,"longitude":57,"max_temp":24,"wind_speed":5},{"index":192,"city":"Emerald","cloudiness":0.0,"country":"AU","date":1542390859,"humidity":68,"latitude":-23,"longitude":148,"max_temp":21,"wind_speed":3},{"index":193,"city":"Saldanha","cloudiness":76.0,"country":"PT","date":1542390859,"humidity":96,"latitude":41,"longitude":-6,"max_temp":9,"wind_speed":0},{"index":194,"city":"Egvekinot","cloudiness":80.0,"country":"RU","date":1542390859,"humidity":63,"latitude":66,"longitude":-179,"max_temp":-18,"wind_speed":1},{"index":195,"city":"Muzhi","cloudiness":76.0,"country":"RU","date":1542390859,"humidity":85,"latitude":65,"longitude":64,"max_temp":-4,"wind_speed":4},{"index":196,"city":"Impfondo","cloudiness":36.0,"country":"CD","date":1542390859,"humidity":95,"latitude":1,"longitude":18,"max_temp":22,"wind_speed":0},{"index":197,"city":"Kaseda","cloudiness":92.0,"country":"JP","date":1542390860,"humidity":100,"latitude":31,"longitude":130,"max_temp":17,"wind_speed":7},{"index":198,"city":"Briceno","cloudiness":44.0,"country":"CO","date":1542390860,"humidity":92,"latitude":7,"longitude":-75,"max_temp":21,"wind_speed":0},{"index":199,"city":"Victoria","cloudiness":75.0,"country":"BN","date":1542389400,"humidity":100,"latitude":5,"longitude":115,"max_temp":24,"wind_speed":5},{"index":200,"city":"Severobaykalsk","cloudiness":32.0,"country":"RU","date":1542390861,"humidity":71,"latitude":55,"longitude":109,"max_temp":-14,"wind_speed":2},{"index":201,"city":"Iquitos","cloudiness":75.0,"country":"PE","date":1542387600,"humidity":59,"latitude":-3,"longitude":-73,"max_temp":33,"wind_speed":1},{"index":202,"city":"Logstor","cloudiness":0.0,"country":"DK","date":1542390864,"humidity":99,"latitude":56,"longitude":9,"max_temp":5,"wind_speed":3},{"index":203,"city":"Kuusamo","cloudiness":90.0,"country":"FI","date":1542388800,"humidity":93,"latitude":65,"longitude":29,"max_temp":5,"wind_speed":7},{"index":204,"city":"Karratha","cloudiness":0.0,"country":"AU","date":1542390865,"humidity":30,"latitude":-20,"longitude":116,"max_temp":27,"wind_speed":5},{"index":205,"city":"Kavaratti","cloudiness":48.0,"country":"IN","date":1542390866,"humidity":97,"latitude":10,"longitude":72,"max_temp":29,"wind_speed":6},{"index":206,"city":"Nemuro","cloudiness":92.0,"country":"JP","date":1542390867,"humidity":98,"latitude":43,"longitude":145,"max_temp":11,"wind_speed":9},{"index":207,"city":"Vila Franca do Campo","cloudiness":20.0,"country":"PT","date":1542389400,"humidity":63,"latitude":37,"longitude":-25,"max_temp":17,"wind_speed":10},{"index":208,"city":"Koubia","cloudiness":20.0,"country":"GN","date":1542390868,"humidity":65,"latitude":11,"longitude":-11,"max_temp":26,"wind_speed":2},{"index":209,"city":"Colac","cloudiness":0.0,"country":"AU","date":1542390869,"humidity":99,"latitude":-38,"longitude":143,"max_temp":6,"wind_speed":1},{"index":210,"city":"Nouakchott","cloudiness":44.0,"country":"MR","date":1542390869,"humidity":99,"latitude":18,"longitude":-15,"max_temp":21,"wind_speed":5},{"index":211,"city":"George Town","cloudiness":75.0,"country":"MY","date":1542389400,"humidity":88,"latitude":5,"longitude":100,"max_temp":27,"wind_speed":1},{"index":212,"city":"Bakel","cloudiness":80.0,"country":"SN","date":1542390871,"humidity":28,"latitude":14,"longitude":-12,"max_temp":34,"wind_speed":2},{"index":213,"city":"Klaksvik","cloudiness":44.0,"country":"FO","date":1542388800,"humidity":87,"latitude":62,"longitude":-6,"max_temp":9,"wind_speed":6},{"index":214,"city":"Marica","cloudiness":75.0,"country":"BR","date":1542387600,"humidity":78,"latitude":-22,"longitude":-42,"max_temp":26,"wind_speed":5},{"index":215,"city":"Codrington","cloudiness":92.0,"country":"AU","date":1542390872,"humidity":99,"latitude":-28,"longitude":153,"max_temp":17,"wind_speed":1},{"index":216,"city":"Cascas","cloudiness":40.0,"country":"PE","date":1542389400,"humidity":72,"latitude":-7,"longitude":-78,"max_temp":18,"wind_speed":2},{"index":217,"city":"Arlit","cloudiness":48.0,"country":"NE","date":1542390873,"humidity":21,"latitude":18,"longitude":7,"max_temp":23,"wind_speed":1},{"index":218,"city":"Saskylakh","cloudiness":24.0,"country":"RU","date":1542390875,"humidity":34,"latitude":71,"longitude":114,"max_temp":-30,"wind_speed":3},{"index":219,"city":"Apatou","cloudiness":80.0,"country":"SR","date":1542390875,"humidity":74,"latitude":5,"longitude":-54,"max_temp":28,"wind_speed":2},{"index":220,"city":"Tarko-Sale","cloudiness":88.0,"country":"RU","date":1542390876,"humidity":81,"latitude":64,"longitude":77,"max_temp":-12,"wind_speed":6},{"index":221,"city":"Coihaique","cloudiness":75.0,"country":"CL","date":1542387600,"humidity":45,"latitude":-45,"longitude":-72,"max_temp":12,"wind_speed":3},{"index":222,"city":"Ikungi","cloudiness":32.0,"country":"TZ","date":1542390876,"humidity":39,"latitude":-5,"longitude":34,"max_temp":25,"wind_speed":5},{"index":223,"city":"Ahuimanu","cloudiness":20.0,"country":"US","date":1542387420,"humidity":81,"latitude":21,"longitude":-157,"max_temp":25,"wind_speed":3},{"index":224,"city":"Palana","cloudiness":36.0,"country":"RU","date":1542390877,"humidity":80,"latitude":59,"longitude":159,"max_temp":-14,"wind_speed":1},{"index":225,"city":"Nichinan","cloudiness":92.0,"country":"JP","date":1542390877,"humidity":100,"latitude":31,"longitude":131,"max_temp":14,"wind_speed":6},{"index":226,"city":"Udalguri","cloudiness":36.0,"country":"IN","date":1542390878,"humidity":94,"latitude":26,"longitude":92,"max_temp":9,"wind_speed":0},{"index":227,"city":"Olinda","cloudiness":40.0,"country":"EC","date":1542387600,"humidity":55,"latitude":-2,"longitude":-79,"max_temp":30,"wind_speed":2},{"index":228,"city":"San Jose de Guanipa","cloudiness":92.0,"country":"VE","date":1542390879,"humidity":96,"latitude":8,"longitude":-64,"max_temp":24,"wind_speed":6},{"index":229,"city":"Walvis Bay","cloudiness":76.0,"country":"NA","date":1542390879,"humidity":94,"latitude":-22,"longitude":14,"max_temp":18,"wind_speed":6},{"index":230,"city":"Wichian Buri","cloudiness":44.0,"country":"TH","date":1542390710,"humidity":90,"latitude":15,"longitude":101,"max_temp":23,"wind_speed":1},{"index":231,"city":"Alofi","cloudiness":75.0,"country":"NU","date":1542387600,"humidity":94,"latitude":-19,"longitude":-169,"max_temp":25,"wind_speed":1},{"index":232,"city":"Tazovskiy","cloudiness":76.0,"country":"RU","date":1542390630,"humidity":74,"latitude":67,"longitude":78,"max_temp":-13,"wind_speed":5},{"index":233,"city":"Antofagasta","cloudiness":20.0,"country":"CL","date":1542387600,"humidity":52,"latitude":-23,"longitude":-70,"max_temp":20,"wind_speed":7},{"index":234,"city":"Betulia","cloudiness":75.0,"country":"CO","date":1542387600,"humidity":51,"latitude":6,"longitude":-75,"max_temp":27,"wind_speed":2},{"index":235,"city":"Phalombe","cloudiness":88.0,"country":"MW","date":1542390884,"humidity":68,"latitude":-15,"longitude":35,"max_temp":23,"wind_speed":3},{"index":236,"city":"Churachandpur","cloudiness":0.0,"country":"IN","date":1542390885,"humidity":85,"latitude":24,"longitude":93,"max_temp":13,"wind_speed":0},{"index":237,"city":"Itoigawa","cloudiness":76.0,"country":"JP","date":1542390885,"humidity":100,"latitude":37,"longitude":137,"max_temp":12,"wind_speed":6},{"index":238,"city":"Cidreira","cloudiness":0.0,"country":"BR","date":1542390885,"humidity":65,"latitude":-30,"longitude":-50,"max_temp":25,"wind_speed":6},{"index":239,"city":"Shakawe","cloudiness":0.0,"country":"BW","date":1542390886,"humidity":14,"latitude":-18,"longitude":21,"max_temp":27,"wind_speed":3},{"index":240,"city":"Ornskoldsvik","cloudiness":0.0,"country":"SE","date":1542388800,"humidity":93,"latitude":63,"longitude":18,"max_temp":3,"wind_speed":2},{"index":241,"city":"Huilong","cloudiness":92.0,"country":"CN","date":1542390886,"humidity":97,"latitude":28,"longitude":110,"max_temp":8,"wind_speed":2},{"index":242,"city":"Pontian Kecil","cloudiness":75.0,"country":"MY","date":1542389400,"humidity":88,"latitude":1,"longitude":103,"max_temp":28,"wind_speed":1},{"index":243,"city":"Jacareacanga","cloudiness":20.0,"country":"BR","date":1542387600,"humidity":59,"latitude":-6,"longitude":-57,"max_temp":35,"wind_speed":1},{"index":244,"city":"Lucea","cloudiness":20.0,"country":"JM","date":1542387600,"humidity":74,"latitude":18,"longitude":-78,"max_temp":29,"wind_speed":6},{"index":245,"city":"Paraiso","cloudiness":40.0,"country":"MX","date":1542386460,"humidity":31,"latitude":24,"longitude":-104,"max_temp":12,"wind_speed":1},{"index":246,"city":"Lakes Entrance","cloudiness":0.0,"country":"AU","date":1542390889,"humidity":98,"latitude":-37,"longitude":147,"max_temp":11,"wind_speed":4},{"index":247,"city":"Komsomolskiy","cloudiness":92.0,"country":"RU","date":1542390890,"humidity":92,"latitude":67,"longitude":63,"max_temp":-3,"wind_speed":6},{"index":248,"city":"Nyurba","cloudiness":64.0,"country":"RU","date":1542390890,"humidity":79,"latitude":63,"longitude":118,"max_temp":-15,"wind_speed":1},{"index":249,"city":"Mount Gambier","cloudiness":0.0,"country":"AU","date":1542390890,"humidity":88,"latitude":-37,"longitude":140,"max_temp":6,"wind_speed":1},{"index":250,"city":"Evensk","cloudiness":0.0,"country":"RU","date":1542390890,"humidity":100,"latitude":61,"longitude":159,"max_temp":-13,"wind_speed":3},{"index":251,"city":"Rocha","cloudiness":0.0,"country":"UY","date":1542390890,"humidity":54,"latitude":-34,"longitude":-54,"max_temp":20,"wind_speed":3},{"index":252,"city":"Darovskoy","cloudiness":44.0,"country":"RU","date":1542390891,"humidity":81,"latitude":58,"longitude":47,"max_temp":0,"wind_speed":5},{"index":253,"city":"Pacific Grove","cloudiness":1.0,"country":"US","date":1542389700,"humidity":34,"latitude":36,"longitude":-121,"max_temp":15,"wind_speed":1},{"index":254,"city":"Kukmor","cloudiness":68.0,"country":"RU","date":1542390891,"humidity":63,"latitude":56,"longitude":50,"max_temp":-4,"wind_speed":5},{"index":255,"city":"Barcelos","cloudiness":20.0,"country":"PT","date":1542389400,"humidity":82,"latitude":41,"longitude":-8,"max_temp":18,"wind_speed":1},{"index":256,"city":"Hamilton","cloudiness":75.0,"country":"BM","date":1542386400,"humidity":78,"latitude":32,"longitude":-64,"max_temp":25,"wind_speed":9},{"index":257,"city":"Marzuq","cloudiness":0.0,"country":"YE","date":1542390891,"humidity":73,"latitude":14,"longitude":46,"max_temp":12,"wind_speed":1},{"index":258,"city":"Sahbuz","cloudiness":40.0,"country":"AZ","date":1542389400,"humidity":71,"latitude":39,"longitude":45,"max_temp":10,"wind_speed":3},{"index":259,"city":"Yulara","cloudiness":90.0,"country":"AU","date":1542387600,"humidity":46,"latitude":-25,"longitude":130,"max_temp":23,"wind_speed":2},{"index":260,"city":"Portland","cloudiness":90.0,"country":"US","date":1542388980,"humidity":92,"latitude":45,"longitude":-122,"max_temp":9,"wind_speed":0},{"index":261,"city":"Glasgow","cloudiness":90.0,"country":"GB","date":1542388800,"humidity":82,"latitude":55,"longitude":-4,"max_temp":13,"wind_speed":2},{"index":262,"city":"Bathsheba","cloudiness":40.0,"country":"BB","date":1542387600,"humidity":70,"latitude":13,"longitude":-59,"max_temp":30,"wind_speed":9},{"index":263,"city":"Kavieng","cloudiness":56.0,"country":"PG","date":1542390893,"humidity":100,"latitude":-2,"longitude":150,"max_temp":27,"wind_speed":1},{"index":264,"city":"Buritizeiro","cloudiness":36.0,"country":"BR","date":1542390893,"humidity":76,"latitude":-17,"longitude":-44,"max_temp":29,"wind_speed":2},{"index":265,"city":"Esna","cloudiness":92.0,"country":"RO","date":1542390893,"humidity":82,"latitude":45,"longitude":27,"max_temp":0,"wind_speed":7},{"index":266,"city":"Kolda","cloudiness":0.0,"country":"SN","date":1542387600,"humidity":41,"latitude":12,"longitude":-14,"max_temp":34,"wind_speed":1},{"index":267,"city":"Serov","cloudiness":88.0,"country":"RU","date":1542390895,"humidity":82,"latitude":59,"longitude":60,"max_temp":-2,"wind_speed":2},{"index":268,"city":"Carnarvon","cloudiness":8.0,"country":"ZA","date":1542390896,"humidity":16,"latitude":-30,"longitude":22,"max_temp":25,"wind_speed":6},{"index":269,"city":"Mungwi","cloudiness":92.0,"country":"ZM","date":1542390896,"humidity":41,"latitude":-10,"longitude":31,"max_temp":26,"wind_speed":3},{"index":270,"city":"Vanimo","cloudiness":92.0,"country":"PG","date":1542390896,"humidity":100,"latitude":-2,"longitude":141,"max_temp":28,"wind_speed":5},{"index":271,"city":"Inhambane","cloudiness":0.0,"country":"MZ","date":1542390897,"humidity":93,"latitude":-23,"longitude":35,"max_temp":24,"wind_speed":4},{"index":272,"city":"Gao","cloudiness":12.0,"country":"ML","date":1542390897,"humidity":18,"latitude":16,"longitude":0,"max_temp":29,"wind_speed":3},{"index":273,"city":"Airai","cloudiness":8.0,"country":"TL","date":1542390897,"humidity":91,"latitude":-8,"longitude":125,"max_temp":20,"wind_speed":0},{"index":274,"city":"Pangnirtung","cloudiness":75.0,"country":"CA","date":1542389520,"humidity":71,"latitude":66,"longitude":-65,"max_temp":-15,"wind_speed":1},{"index":275,"city":"East London","cloudiness":40.0,"country":"ZA","date":1542387600,"humidity":88,"latitude":-33,"longitude":27,"max_temp":20,"wind_speed":3},{"index":276,"city":"Eisiskes","cloudiness":75.0,"country":"LT","date":1542388800,"humidity":86,"latitude":54,"longitude":25,"max_temp":1,"wind_speed":2},{"index":277,"city":"Salalah","cloudiness":20.0,"country":"OM","date":1542387000,"humidity":74,"latitude":17,"longitude":54,"max_temp":27,"wind_speed":1},{"index":278,"city":"Erdenet","cloudiness":36.0,"country":"MN","date":1542390733,"humidity":66,"latitude":49,"longitude":104,"max_temp":-9,"wind_speed":2},{"index":279,"city":"Fortuna","cloudiness":40.0,"country":"ES","date":1542389400,"humidity":82,"latitude":38,"longitude":-1,"max_temp":18,"wind_speed":7},{"index":280,"city":"Sabang","cloudiness":12.0,"country":"PH","date":1542390898,"humidity":96,"latitude":13,"longitude":123,"max_temp":24,"wind_speed":2},{"index":281,"city":"Sola","cloudiness":40.0,"country":"NO","date":1542388800,"humidity":81,"latitude":58,"longitude":5,"max_temp":10,"wind_speed":2},{"index":282,"city":"Cabadiangan","cloudiness":20.0,"country":"PH","date":1542387600,"humidity":88,"latitude":10,"longitude":123,"max_temp":26,"wind_speed":2},{"index":283,"city":"Dzerzhinsk","cloudiness":0.0,"country":"RU","date":1542387600,"humidity":53,"latitude":56,"longitude":43,"max_temp":-4,"wind_speed":2},{"index":284,"city":"Jauharabad","cloudiness":0.0,"country":"PK","date":1542390899,"humidity":89,"latitude":32,"longitude":72,"max_temp":11,"wind_speed":0},{"index":285,"city":"Torbay","cloudiness":75.0,"country":"CA","date":1542387600,"humidity":63,"latitude":47,"longitude":-52,"max_temp":-2,"wind_speed":3},{"index":286,"city":"Cortes","cloudiness":64.0,"country":"PH","date":1542390899,"humidity":100,"latitude":9,"longitude":126,"max_temp":21,"wind_speed":1},{"index":287,"city":"Maltahohe","cloudiness":36.0,"country":"NA","date":1542390899,"humidity":12,"latitude":-24,"longitude":16,"max_temp":26,"wind_speed":3},{"index":288,"city":"Aktau","cloudiness":0.0,"country":"KZ","date":1542390900,"humidity":100,"latitude":43,"longitude":51,"max_temp":6,"wind_speed":8},{"index":289,"city":"Verkhnyaya Toyma","cloudiness":92.0,"country":"RU","date":1542390900,"humidity":96,"latitude":62,"longitude":45,"max_temp":4,"wind_speed":3},{"index":290,"city":"Dorfen","cloudiness":0.0,"country":"DE","date":1542388800,"humidity":86,"latitude":48,"longitude":12,"max_temp":3,"wind_speed":3},{"index":291,"city":"Batagay-Alyta","cloudiness":0.0,"country":"RU","date":1542390900,"humidity":0,"latitude":67,"longitude":130,"max_temp":-39,"wind_speed":1},{"index":292,"city":"Aripuana","cloudiness":36.0,"country":"BR","date":1542390900,"humidity":65,"latitude":-9,"longitude":-60,"max_temp":32,"wind_speed":1},{"index":293,"city":"Mazagao","cloudiness":20.0,"country":"BR","date":1542387600,"humidity":50,"latitude":0,"longitude":-51,"max_temp":35,"wind_speed":5},{"index":294,"city":"Petropavlovsk-Kamchatskiy","cloudiness":0.0,"country":"RU","date":1542387600,"humidity":85,"latitude":53,"longitude":158,"max_temp":-8,"wind_speed":4},{"index":295,"city":"Fulnek","cloudiness":0.0,"country":"CZ","date":1542389400,"humidity":85,"latitude":49,"longitude":17,"max_temp":2,"wind_speed":3},{"index":296,"city":"Brae","cloudiness":20.0,"country":"GB","date":1542388800,"humidity":93,"latitude":60,"longitude":-1,"max_temp":10,"wind_speed":6},{"index":297,"city":"Takoradi","cloudiness":8.0,"country":"GH","date":1542390901,"humidity":97,"latitude":4,"longitude":-1,"max_temp":28,"wind_speed":4},{"index":298,"city":"Vila Velha","cloudiness":20.0,"country":"BR","date":1542387600,"humidity":55,"latitude":-3,"longitude":-38,"max_temp":31,"wind_speed":5},{"index":299,"city":"Nizhnevartovsk","cloudiness":0.0,"country":"RU","date":1542387600,"humidity":84,"latitude":60,"longitude":76,"max_temp":-18,"wind_speed":3},{"index":300,"city":"Te Anau","cloudiness":64.0,"country":"NZ","date":1542390901,"humidity":96,"latitude":-45,"longitude":167,"max_temp":4,"wind_speed":0},{"index":301,"city":"Houston","cloudiness":1.0,"country":"US","date":1542388500,"humidity":42,"latitude":29,"longitude":-95,"max_temp":19,"wind_speed":1},{"index":302,"city":"Virginia Beach","cloudiness":0.0,"country":"US","date":1542388500,"humidity":54,"latitude":36,"longitude":-75,"max_temp":11,"wind_speed":5},{"index":303,"city":"Iqaluit","cloudiness":40.0,"country":"CA","date":1542387600,"humidity":76,"latitude":63,"longitude":-68,"max_temp":-23,"wind_speed":8},{"index":304,"city":"Anchorage","cloudiness":90.0,"country":"US","date":1542388740,"humidity":92,"latitude":61,"longitude":-149,"max_temp":-1,"wind_speed":2},{"index":305,"city":"Khorixas","cloudiness":76.0,"country":"NA","date":1542390902,"humidity":33,"latitude":-20,"longitude":14,"max_temp":27,"wind_speed":1},{"index":306,"city":"Tabou","cloudiness":80.0,"country":"CI","date":1542390902,"humidity":100,"latitude":4,"longitude":-7,"max_temp":26,"wind_speed":4},{"index":307,"city":"Porto Walter","cloudiness":68.0,"country":"BR","date":1542390756,"humidity":71,"latitude":-8,"longitude":-72,"max_temp":30,"wind_speed":1},{"index":308,"city":"Zemio","cloudiness":0.0,"country":"CF","date":1542390903,"humidity":57,"latitude":5,"longitude":25,"max_temp":23,"wind_speed":2},{"index":309,"city":"El Chichicaste","cloudiness":76.0,"country":"HN","date":1542390903,"humidity":69,"latitude":14,"longitude":-86,"max_temp":24,"wind_speed":2},{"index":310,"city":"Vao","cloudiness":80.0,"country":"EE","date":1542390903,"humidity":94,"latitude":59,"longitude":26,"max_temp":6,"wind_speed":5},{"index":311,"city":"Arkadelphia","cloudiness":1.0,"country":"US","date":1542389700,"humidity":39,"latitude":34,"longitude":-93,"max_temp":17,"wind_speed":2},{"index":312,"city":"Passo de Camaragibe","cloudiness":75.0,"country":"BR","date":1542387600,"humidity":65,"latitude":-9,"longitude":-35,"max_temp":28,"wind_speed":7},{"index":313,"city":"Emmen","cloudiness":0.0,"country":"NL","date":1542389100,"humidity":87,"latitude":52,"longitude":6,"max_temp":6,"wind_speed":3},{"index":314,"city":"Kudahuvadhoo","cloudiness":88.0,"country":"MV","date":1542390904,"humidity":100,"latitude":2,"longitude":72,"max_temp":26,"wind_speed":4},{"index":315,"city":"Pangkalanbuun","cloudiness":68.0,"country":"ID","date":1542390904,"humidity":94,"latitude":-2,"longitude":111,"max_temp":23,"wind_speed":1},{"index":316,"city":"Lompoc","cloudiness":1.0,"country":"US","date":1542389700,"humidity":35,"latitude":34,"longitude":-120,"max_temp":17,"wind_speed":0},{"index":317,"city":"Oeiras do Para","cloudiness":56.0,"country":"BR","date":1542390905,"humidity":66,"latitude":-2,"longitude":-49,"max_temp":31,"wind_speed":3},{"index":318,"city":"Berlevag","cloudiness":75.0,"country":"NO","date":1542387000,"humidity":86,"latitude":70,"longitude":29,"max_temp":6,"wind_speed":12},{"index":319,"city":"Catalina","cloudiness":40.0,"country":"CO","date":1542387600,"humidity":66,"latitude":8,"longitude":-75,"max_temp":33,"wind_speed":2},{"index":320,"city":"Yeppoon","cloudiness":40.0,"country":"AU","date":1542389400,"humidity":77,"latitude":-23,"longitude":150,"max_temp":20,"wind_speed":2},{"index":321,"city":"Shache","cloudiness":0.0,"country":"CN","date":1542390905,"humidity":75,"latitude":38,"longitude":77,"max_temp":-5,"wind_speed":1},{"index":322,"city":"Fort Frances","cloudiness":90.0,"country":"CA","date":1542389280,"humidity":71,"latitude":48,"longitude":-93,"max_temp":-5,"wind_speed":6},{"index":323,"city":"Hualmay","cloudiness":8.0,"country":"PE","date":1542390906,"humidity":63,"latitude":-11,"longitude":-77,"max_temp":22,"wind_speed":2},{"index":324,"city":"Lagoa","cloudiness":20.0,"country":"PT","date":1542389400,"humidity":82,"latitude":37,"longitude":-8,"max_temp":17,"wind_speed":3},{"index":325,"city":"Belmonte","cloudiness":56.0,"country":"PT","date":1542390862,"humidity":95,"latitude":40,"longitude":-7,"max_temp":11,"wind_speed":1},{"index":326,"city":"Ewo","cloudiness":92.0,"country":"CG","date":1542390906,"humidity":95,"latitude":0,"longitude":14,"max_temp":21,"wind_speed":1},{"index":327,"city":"Parkes","cloudiness":0.0,"country":"AU","date":1542390907,"humidity":64,"latitude":-33,"longitude":148,"max_temp":12,"wind_speed":0},{"index":328,"city":"Kenai","cloudiness":90.0,"country":"US","date":1542387360,"humidity":85,"latitude":60,"longitude":-151,"max_temp":1,"wind_speed":5},{"index":329,"city":"Vikulovo","cloudiness":0.0,"country":"RU","date":1542390907,"humidity":62,"latitude":55,"longitude":40,"max_temp":-12,"wind_speed":2},{"index":330,"city":"Pathein","cloudiness":0.0,"country":"MM","date":1542390907,"humidity":90,"latitude":16,"longitude":94,"max_temp":23,"wind_speed":2},{"index":331,"city":"Alghero","cloudiness":0.0,"country":"IT","date":1542388800,"humidity":71,"latitude":40,"longitude":8,"max_temp":13,"wind_speed":3},{"index":332,"city":"Spas-Demensk","cloudiness":0.0,"country":"RU","date":1542390907,"humidity":67,"latitude":54,"longitude":34,"max_temp":-9,"wind_speed":1},{"index":333,"city":"Playas","cloudiness":0.0,"country":"EC","date":1542390908,"humidity":80,"latitude":-2,"longitude":-80,"max_temp":28,"wind_speed":4},{"index":334,"city":"Hambantota","cloudiness":76.0,"country":"LK","date":1542390908,"humidity":100,"latitude":6,"longitude":81,"max_temp":27,"wind_speed":2},{"index":335,"city":"Peleduy","cloudiness":76.0,"country":"RU","date":1542390908,"humidity":84,"latitude":59,"longitude":112,"max_temp":-11,"wind_speed":1},{"index":336,"city":"Clarence Town","cloudiness":90.0,"country":"AU","date":1542389400,"humidity":100,"latitude":-32,"longitude":151,"max_temp":15,"wind_speed":0},{"index":337,"city":"Saint-Joseph","cloudiness":90.0,"country":"FR","date":1542389400,"humidity":59,"latitude":43,"longitude":6,"max_temp":17,"wind_speed":2},{"index":338,"city":"Oktyabrskiy","cloudiness":0.0,"country":"RU","date":1542387600,"humidity":45,"latitude":55,"longitude":37,"max_temp":-3,"wind_speed":1},{"index":339,"city":"Manicore","cloudiness":20.0,"country":"BR","date":1542390909,"humidity":87,"latitude":-5,"longitude":-61,"max_temp":29,"wind_speed":1},{"index":340,"city":"Palmer","cloudiness":0.0,"country":"AU","date":1542389400,"humidity":76,"latitude":-34,"longitude":139,"max_temp":11,"wind_speed":3},{"index":341,"city":"Tessalit","cloudiness":24.0,"country":"ML","date":1542390909,"humidity":18,"latitude":20,"longitude":1,"max_temp":25,"wind_speed":3},{"index":342,"city":"Greensboro","cloudiness":1.0,"country":"US","date":1542388800,"humidity":51,"latitude":36,"longitude":-79,"max_temp":9,"wind_speed":4},{"index":343,"city":"Ondjiva","cloudiness":0.0,"country":"AO","date":1542390702,"humidity":12,"latitude":-17,"longitude":15,"max_temp":30,"wind_speed":4},{"index":344,"city":"Port Blair","cloudiness":76.0,"country":"IN","date":1542390910,"humidity":96,"latitude":11,"longitude":92,"max_temp":29,"wind_speed":3},{"index":345,"city":"Merauke","cloudiness":8.0,"country":"ID","date":1542390910,"humidity":90,"latitude":-8,"longitude":140,"max_temp":26,"wind_speed":7},{"index":346,"city":"Maloy","cloudiness":12.0,"country":"ID","date":1542390910,"humidity":96,"latitude":1,"longitude":118,"max_temp":23,"wind_speed":0},{"index":347,"city":"Sabha","cloudiness":0.0,"country":"LY","date":1542390910,"humidity":33,"latitude":27,"longitude":14,"max_temp":17,"wind_speed":4},{"index":348,"city":"San Juan","cloudiness":0.0,"country":"AR","date":1542390912,"humidity":29,"latitude":-31,"longitude":-68,"max_temp":30,"wind_speed":3},{"index":349,"city":"Acapulco","cloudiness":5.0,"country":"MX","date":1542386580,"humidity":58,"latitude":16,"longitude":-99,"max_temp":30,"wind_speed":1},{"index":350,"city":"Honiara","cloudiness":32.0,"country":"SB","date":1542390912,"humidity":100,"latitude":-9,"longitude":159,"max_temp":22,"wind_speed":1},{"index":351,"city":"Mandalgovi","cloudiness":64.0,"country":"MN","date":1542390912,"humidity":69,"latitude":45,"longitude":106,"max_temp":-11,"wind_speed":2},{"index":352,"city":"Una","cloudiness":20.0,"country":"BR","date":1542387600,"humidity":70,"latitude":-15,"longitude":-39,"max_temp":30,"wind_speed":3},{"index":353,"city":"Woodward","cloudiness":1.0,"country":"US","date":1542388500,"humidity":37,"latitude":36,"longitude":-99,"max_temp":15,"wind_speed":4},{"index":354,"city":"Asheville","cloudiness":1.0,"country":"US","date":1542387240,"humidity":59,"latitude":35,"longitude":-82,"max_temp":5,"wind_speed":5},{"index":355,"city":"The Valley","cloudiness":40.0,"country":"AI","date":1542389340,"humidity":88,"latitude":18,"longitude":-63,"max_temp":28,"wind_speed":7},{"index":356,"city":"Zacualpan","cloudiness":75.0,"country":"MX","date":1542386940,"humidity":50,"latitude":21,"longitude":-105,"max_temp":26,"wind_speed":2},{"index":357,"city":"Changde","cloudiness":92.0,"country":"CN","date":1542390913,"humidity":100,"latitude":29,"longitude":111,"max_temp":10,"wind_speed":6},{"index":358,"city":"Waipawa","cloudiness":20.0,"country":"NZ","date":1542390913,"humidity":82,"latitude":-39,"longitude":176,"max_temp":10,"wind_speed":1},{"index":359,"city":"Apollonia","cloudiness":75.0,"country":"GR","date":1542388800,"humidity":87,"latitude":40,"longitude":23,"max_temp":9,"wind_speed":1},{"index":360,"city":"Omboue","cloudiness":64.0,"country":"GA","date":1542390914,"humidity":100,"latitude":-1,"longitude":9,"max_temp":26,"wind_speed":3},{"index":361,"city":"Naranjal","cloudiness":75.0,"country":"PY","date":1542387600,"humidity":46,"latitude":-25,"longitude":-55,"max_temp":34,"wind_speed":3},{"index":362,"city":"Terney","cloudiness":0.0,"country":"RU","date":1542390914,"humidity":100,"latitude":45,"longitude":136,"max_temp":-4,"wind_speed":6},{"index":363,"city":"Cap Malheureux","cloudiness":40.0,"country":"MU","date":1542387600,"humidity":78,"latitude":-19,"longitude":57,"max_temp":24,"wind_speed":5},{"index":364,"city":"Karagay","cloudiness":92.0,"country":"RU","date":1542390915,"humidity":82,"latitude":58,"longitude":54,"max_temp":-1,"wind_speed":6},{"index":365,"city":"Khatanga","cloudiness":80.0,"country":"RU","date":1542390915,"humidity":63,"latitude":71,"longitude":102,"max_temp":-22,"wind_speed":7},{"index":366,"city":"Pachino","cloudiness":20.0,"country":"IT","date":1542387000,"humidity":87,"latitude":36,"longitude":15,"max_temp":14,"wind_speed":1},{"index":367,"city":"Pitimbu","cloudiness":75.0,"country":"BR","date":1542387600,"humidity":58,"latitude":-7,"longitude":-34,"max_temp":30,"wind_speed":4},{"index":368,"city":"Itaituba","cloudiness":40.0,"country":"BR","date":1542387600,"humidity":74,"latitude":-4,"longitude":-55,"max_temp":29,"wind_speed":3},{"index":369,"city":"Bodden Town","cloudiness":40.0,"country":"KY","date":1542387600,"humidity":74,"latitude":19,"longitude":-81,"max_temp":31,"wind_speed":8},{"index":370,"city":"Namibe","cloudiness":8.0,"country":"AO","date":1542390916,"humidity":100,"latitude":-15,"longitude":12,"max_temp":23,"wind_speed":4},{"index":371,"city":"Mahebourg","cloudiness":40.0,"country":"MU","date":1542387600,"humidity":78,"latitude":-20,"longitude":57,"max_temp":24,"wind_speed":5},{"index":372,"city":"Rio Grande","cloudiness":40.0,"country":"BR","date":1542387600,"humidity":57,"latitude":-32,"longitude":-52,"max_temp":24,"wind_speed":3},{"index":373,"city":"Grand Baie","cloudiness":40.0,"country":"MU","date":1542387600,"humidity":78,"latitude":-20,"longitude":57,"max_temp":24,"wind_speed":5},{"index":374,"city":"Celestun","cloudiness":88.0,"country":"MX","date":1542390916,"humidity":100,"latitude":20,"longitude":-90,"max_temp":24,"wind_speed":7},{"index":375,"city":"Daloa","cloudiness":36.0,"country":"CI","date":1542390916,"humidity":64,"latitude":6,"longitude":-6,"max_temp":28,"wind_speed":2},{"index":376,"city":"Ostersund","cloudiness":0.0,"country":"SE","date":1542388800,"humidity":86,"latitude":63,"longitude":14,"max_temp":5,"wind_speed":3},{"index":377,"city":"Deputatskiy","cloudiness":0.0,"country":"RU","date":1542390917,"humidity":28,"latitude":69,"longitude":139,"max_temp":-29,"wind_speed":1},{"index":378,"city":"Tuatapere","cloudiness":48.0,"country":"NZ","date":1542390917,"humidity":100,"latitude":-46,"longitude":167,"max_temp":8,"wind_speed":2},{"index":379,"city":"Mizan Teferi","cloudiness":44.0,"country":"ET","date":1542390917,"humidity":88,"latitude":6,"longitude":35,"max_temp":17,"wind_speed":0},{"index":380,"city":"Rio de Janeiro","cloudiness":75.0,"country":"BR","date":1542387600,"humidity":78,"latitude":-22,"longitude":-43,"max_temp":26,"wind_speed":5},{"index":381,"city":"Nhulunbuy","cloudiness":0.0,"country":"AU","date":1542389400,"humidity":88,"latitude":-12,"longitude":136,"max_temp":24,"wind_speed":3},{"index":382,"city":"San Diego de la Union","cloudiness":0.0,"country":"MX","date":1542390918,"humidity":50,"latitude":21,"longitude":-100,"max_temp":17,"wind_speed":1},{"index":383,"city":"Benguela","cloudiness":0.0,"country":"AO","date":1542390918,"humidity":100,"latitude":-12,"longitude":13,"max_temp":25,"wind_speed":2},{"index":384,"city":"Naryan-Mar","cloudiness":88.0,"country":"RU","date":1542390918,"humidity":91,"latitude":67,"longitude":53,"max_temp":3,"wind_speed":7},{"index":385,"city":"Samagaltay","cloudiness":36.0,"country":"RU","date":1542390722,"humidity":55,"latitude":50,"longitude":95,"max_temp":-19,"wind_speed":0},{"index":386,"city":"Longjiang","cloudiness":0.0,"country":"CN","date":1542390829,"humidity":69,"latitude":47,"longitude":123,"max_temp":-12,"wind_speed":2},{"index":387,"city":"Axim","cloudiness":8.0,"country":"GH","date":1542390919,"humidity":100,"latitude":4,"longitude":-2,"max_temp":28,"wind_speed":4},{"index":388,"city":"Genhe","cloudiness":24.0,"country":"CN","date":1542390919,"humidity":75,"latitude":50,"longitude":121,"max_temp":-14,"wind_speed":2},{"index":389,"city":"Puerto Escondido","cloudiness":20.0,"country":"MX","date":1542386700,"humidity":69,"latitude":15,"longitude":-97,"max_temp":28,"wind_speed":4},{"index":390,"city":"Vestmannaeyjar","cloudiness":90.0,"country":"IS","date":1542388200,"humidity":100,"latitude":63,"longitude":-20,"max_temp":8,"wind_speed":22},{"index":391,"city":"Camabatela","cloudiness":68.0,"country":"AO","date":1542390920,"humidity":67,"latitude":-8,"longitude":15,"max_temp":23,"wind_speed":1},{"index":392,"city":"Labuhan","cloudiness":12.0,"country":"ID","date":1542390920,"humidity":95,"latitude":-2,"longitude":115,"max_temp":22,"wind_speed":0},{"index":393,"city":"Dasoguz","cloudiness":0.0,"country":"TM","date":1542387600,"humidity":62,"latitude":41,"longitude":59,"max_temp":1,"wind_speed":5},{"index":394,"city":"Milkovo","cloudiness":44.0,"country":"BG","date":1542389400,"humidity":75,"latitude":41,"longitude":24,"max_temp":7,"wind_speed":5},{"index":395,"city":"Viedma","cloudiness":92.0,"country":"AR","date":1542390921,"humidity":27,"latitude":-40,"longitude":-62,"max_temp":20,"wind_speed":7},{"index":396,"city":"Chumikan","cloudiness":88.0,"country":"RU","date":1542390921,"humidity":98,"latitude":54,"longitude":135,"max_temp":-7,"wind_speed":8},{"index":397,"city":"Carutapera","cloudiness":8.0,"country":"BR","date":1542390921,"humidity":61,"latitude":-1,"longitude":-46,"max_temp":30,"wind_speed":6},{"index":398,"city":"Yumen","cloudiness":44.0,"country":"CN","date":1542390921,"humidity":75,"latitude":40,"longitude":97,"max_temp":-8,"wind_speed":3},{"index":399,"city":"College","cloudiness":75.0,"country":"US","date":1542387480,"humidity":86,"latitude":64,"longitude":-147,"max_temp":-17,"wind_speed":1},{"index":400,"city":"Broome","cloudiness":90.0,"country":"GB","date":1542389760,"humidity":100,"latitude":52,"longitude":1,"max_temp":9,"wind_speed":3},{"index":401,"city":"Moscow","cloudiness":0.0,"country":"RU","date":1542387600,"humidity":63,"latitude":55,"longitude":37,"max_temp":-3,"wind_speed":3},{"index":402,"city":"Storsteinnes","cloudiness":75.0,"country":"NO","date":1542388800,"humidity":87,"latitude":69,"longitude":19,"max_temp":7,"wind_speed":4},{"index":403,"city":"Sambava","cloudiness":80.0,"country":"MG","date":1542390922,"humidity":100,"latitude":-14,"longitude":50,"max_temp":25,"wind_speed":7},{"index":404,"city":"Faya","cloudiness":40.0,"country":"SA","date":1542387600,"humidity":77,"latitude":18,"longitude":42,"max_temp":17,"wind_speed":3},{"index":405,"city":"Paamiut","cloudiness":92.0,"country":"GL","date":1542390922,"humidity":97,"latitude":61,"longitude":-49,"max_temp":1,"wind_speed":10},{"index":406,"city":"Lorengau","cloudiness":20.0,"country":"PG","date":1542390922,"humidity":100,"latitude":-2,"longitude":147,"max_temp":28,"wind_speed":3},{"index":407,"city":"Corinto","cloudiness":76.0,"country":"BR","date":1542390923,"humidity":100,"latitude":-18,"longitude":-44,"max_temp":24,"wind_speed":1},{"index":408,"city":"Iida","cloudiness":32.0,"country":"JP","date":1542390923,"humidity":89,"latitude":35,"longitude":137,"max_temp":1,"wind_speed":0},{"index":409,"city":"Wanning","cloudiness":0.0,"country":"AT","date":1542388800,"humidity":68,"latitude":48,"longitude":13,"max_temp":6,"wind_speed":5},{"index":410,"city":"Kruisfontein","cloudiness":20.0,"country":"ZA","date":1542390923,"humidity":85,"latitude":-34,"longitude":24,"max_temp":17,"wind_speed":5},{"index":411,"city":"Kahului","cloudiness":20.0,"country":"US","date":1542387360,"humidity":87,"latitude":20,"longitude":-156,"max_temp":23,"wind_speed":4},{"index":412,"city":"Morgan City","cloudiness":1.0,"country":"US","date":1542387360,"humidity":49,"latitude":29,"longitude":-91,"max_temp":14,"wind_speed":1},{"index":413,"city":"Pedernales","cloudiness":8.0,"country":"EC","date":1542390923,"humidity":71,"latitude":0,"longitude":-80,"max_temp":30,"wind_speed":2},{"index":414,"city":"Assare","cloudiness":8.0,"country":"BR","date":1542390924,"humidity":30,"latitude":-6,"longitude":-39,"max_temp":35,"wind_speed":3},{"index":415,"city":"Kandrian","cloudiness":20.0,"country":"PG","date":1542390924,"humidity":97,"latitude":-6,"longitude":149,"max_temp":24,"wind_speed":2},{"index":416,"city":"San Quintin","cloudiness":32.0,"country":"PH","date":1542390924,"humidity":81,"latitude":17,"longitude":120,"max_temp":21,"wind_speed":1},{"index":417,"city":"Seoul","cloudiness":0.0,"country":"KR","date":1542389400,"humidity":48,"latitude":37,"longitude":126,"max_temp":4,"wind_speed":5},{"index":418,"city":"Maceio","cloudiness":75.0,"country":"BR","date":1542387600,"humidity":65,"latitude":-9,"longitude":-35,"max_temp":28,"wind_speed":7},{"index":419,"city":"Mier","cloudiness":0.0,"country":"IT","date":1542388800,"humidity":57,"latitude":46,"longitude":12,"max_temp":11,"wind_speed":4},{"index":420,"city":"Queanbeyan","cloudiness":90.0,"country":"AU","date":1542389400,"humidity":87,"latitude":-35,"longitude":149,"max_temp":13,"wind_speed":3},{"index":421,"city":"Yakima","cloudiness":90.0,"country":"US","date":1542388740,"humidity":82,"latitude":46,"longitude":-120,"max_temp":8,"wind_speed":1},{"index":422,"city":"Sioux Lookout","cloudiness":90.0,"country":"CA","date":1542389400,"humidity":78,"latitude":50,"longitude":-91,"max_temp":-9,"wind_speed":4},{"index":423,"city":"Katherine","cloudiness":90.0,"country":"AU","date":1542389400,"humidity":83,"latitude":-14,"longitude":132,"max_temp":25,"wind_speed":2},{"index":424,"city":"Bom Jesus","cloudiness":40.0,"country":"BR","date":1542387600,"humidity":52,"latitude":-5,"longitude":-35,"max_temp":31,"wind_speed":6},{"index":425,"city":"Dudinka","cloudiness":68.0,"country":"RU","date":1542390688,"humidity":78,"latitude":69,"longitude":86,"max_temp":-13,"wind_speed":7},{"index":426,"city":"Prado","cloudiness":0.0,"country":"BR","date":1542390927,"humidity":94,"latitude":-17,"longitude":-39,"max_temp":26,"wind_speed":7},{"index":427,"city":"Payakumbuh","cloudiness":44.0,"country":"ID","date":1542390927,"humidity":91,"latitude":0,"longitude":100,"max_temp":21,"wind_speed":1},{"index":428,"city":"Itoman","cloudiness":20.0,"country":"JP","date":1542389400,"humidity":73,"latitude":26,"longitude":127,"max_temp":23,"wind_speed":5},{"index":429,"city":"Praia da Vitoria","cloudiness":20.0,"country":"PT","date":1542387600,"humidity":67,"latitude":38,"longitude":-27,"max_temp":17,"wind_speed":12},{"index":430,"city":"Duobao","cloudiness":92.0,"country":"CN","date":1542390928,"humidity":100,"latitude":30,"longitude":112,"max_temp":10,"wind_speed":4},{"index":431,"city":"Malanje","cloudiness":8.0,"country":"AO","date":1542390929,"humidity":83,"latitude":-9,"longitude":16,"max_temp":22,"wind_speed":0},{"index":432,"city":"La Ronge","cloudiness":40.0,"country":"CA","date":1542387600,"humidity":76,"latitude":55,"longitude":-105,"max_temp":-21,"wind_speed":4},{"index":433,"city":"Broken Hill","cloudiness":0.0,"country":"AU","date":1542390929,"humidity":57,"latitude":-31,"longitude":141,"max_temp":12,"wind_speed":5},{"index":434,"city":"Kupang","cloudiness":0.0,"country":"ID","date":1542387600,"humidity":83,"latitude":-10,"longitude":123,"max_temp":27,"wind_speed":1},{"index":435,"city":"Sao Borja","cloudiness":0.0,"country":"BR","date":1542390930,"humidity":52,"latitude":-28,"longitude":-56,"max_temp":31,"wind_speed":7},{"index":436,"city":"Severodvinsk","cloudiness":90.0,"country":"RU","date":1542387600,"humidity":100,"latitude":64,"longitude":39,"max_temp":6,"wind_speed":3},{"index":437,"city":"Ampanihy","cloudiness":0.0,"country":"MG","date":1542390930,"humidity":36,"latitude":-24,"longitude":44,"max_temp":28,"wind_speed":6},{"index":438,"city":"Gorele","cloudiness":75.0,"country":"TR","date":1542388800,"humidity":81,"latitude":41,"longitude":39,"max_temp":11,"wind_speed":4},{"index":439,"city":"Scottsbluff","cloudiness":1.0,"country":"US","date":1542387180,"humidity":34,"latitude":41,"longitude":-103,"max_temp":13,"wind_speed":4},{"index":440,"city":"Oranjestad","cloudiness":40.0,"country":"AW","date":1542387600,"humidity":66,"latitude":12,"longitude":-70,"max_temp":31,"wind_speed":9},{"index":441,"city":"Ebetsu","cloudiness":75.0,"country":"JP","date":1542389400,"humidity":86,"latitude":43,"longitude":141,"max_temp":5,"wind_speed":6},{"index":442,"city":"Suntar","cloudiness":64.0,"country":"RU","date":1542390931,"humidity":76,"latitude":62,"longitude":117,"max_temp":-15,"wind_speed":1},{"index":443,"city":"Athens","cloudiness":1.0,"country":"US","date":1542388500,"humidity":54,"latitude":34,"longitude":-86,"max_temp":10,"wind_speed":4},{"index":444,"city":"Kinston","cloudiness":1.0,"country":"US","date":1542388200,"humidity":50,"latitude":35,"longitude":-77,"max_temp":12,"wind_speed":2},{"index":445,"city":"Fairbanks","cloudiness":75.0,"country":"US","date":1542387480,"humidity":86,"latitude":64,"longitude":-147,"max_temp":-17,"wind_speed":1},{"index":446,"city":"Beringovskiy","cloudiness":88.0,"country":"RU","date":1542390932,"humidity":100,"latitude":63,"longitude":179,"max_temp":-4,"wind_speed":7},{"index":447,"city":"Sorland","cloudiness":75.0,"country":"NO","date":1542388800,"humidity":76,"latitude":67,"longitude":12,"max_temp":9,"wind_speed":15},{"index":448,"city":"Bubaque","cloudiness":0.0,"country":"GW","date":1542387600,"humidity":40,"latitude":11,"longitude":-15,"max_temp":32,"wind_speed":1},{"index":449,"city":"Sampit","cloudiness":44.0,"country":"ID","date":1542390933,"humidity":95,"latitude":-2,"longitude":112,"max_temp":23,"wind_speed":1},{"index":450,"city":"Kalevala","cloudiness":80.0,"country":"FI","date":1542390934,"humidity":94,"latitude":64,"longitude":29,"max_temp":5,"wind_speed":4},{"index":451,"city":"Nampula","cloudiness":20.0,"country":"MZ","date":1542387600,"humidity":65,"latitude":-15,"longitude":39,"max_temp":28,"wind_speed":5},{"index":452,"city":"Cravo Norte","cloudiness":32.0,"country":"CO","date":1542390935,"humidity":85,"latitude":6,"longitude":-70,"max_temp":29,"wind_speed":4},{"index":453,"city":"Griffith","cloudiness":0.0,"country":"AU","date":1542390935,"humidity":46,"latitude":-34,"longitude":146,"max_temp":12,"wind_speed":4},{"index":454,"city":"Mocuba","cloudiness":8.0,"country":"MZ","date":1542390935,"humidity":72,"latitude":-16,"longitude":36,"max_temp":24,"wind_speed":1},{"index":455,"city":"Tezu","cloudiness":92.0,"country":"IN","date":1542390936,"humidity":100,"latitude":27,"longitude":96,"max_temp":10,"wind_speed":0},{"index":456,"city":"Miles City","cloudiness":90.0,"country":"US","date":1542387180,"humidity":79,"latitude":46,"longitude":-105,"max_temp":5,"wind_speed":6},{"index":457,"city":"Atasu","cloudiness":8.0,"country":"KZ","date":1542390936,"humidity":48,"latitude":48,"longitude":71,"max_temp":-22,"wind_speed":1},{"index":458,"city":"Huarmey","cloudiness":8.0,"country":"PE","date":1542390936,"humidity":57,"latitude":-10,"longitude":-78,"max_temp":23,"wind_speed":1},{"index":459,"city":"Santa Isabel","cloudiness":75.0,"country":"CO","date":1542387600,"humidity":74,"latitude":4,"longitude":-75,"max_temp":27,"wind_speed":3},{"index":460,"city":"Manassas","cloudiness":1.0,"country":"US","date":1542390120,"humidity":56,"latitude":38,"longitude":-77,"max_temp":10,"wind_speed":3},{"index":461,"city":"Ranong","cloudiness":48.0,"country":"TH","date":1542390937,"humidity":100,"latitude":9,"longitude":98,"max_temp":27,"wind_speed":3},{"index":462,"city":"Nanning","cloudiness":90.0,"country":"CN","date":1542387600,"humidity":88,"latitude":22,"longitude":108,"max_temp":18,"wind_speed":3},{"index":463,"city":"Yerbogachen","cloudiness":24.0,"country":"RU","date":1542390938,"humidity":48,"latitude":61,"longitude":108,"max_temp":-19,"wind_speed":3},{"index":464,"city":"Manacapuru","cloudiness":36.0,"country":"BR","date":1542390938,"humidity":60,"latitude":-3,"longitude":-60,"max_temp":33,"wind_speed":2},{"index":465,"city":"Sarny","cloudiness":0.0,"country":"UA","date":1542390938,"humidity":77,"latitude":51,"longitude":26,"max_temp":-2,"wind_speed":4},{"index":466,"city":"Westport","cloudiness":75.0,"country":"IE","date":1542389400,"humidity":93,"latitude":53,"longitude":-9,"max_temp":11,"wind_speed":8},{"index":467,"city":"Namatanai","cloudiness":32.0,"country":"PG","date":1542390939,"humidity":100,"latitude":-3,"longitude":152,"max_temp":28,"wind_speed":4},{"index":468,"city":"Zitiste","cloudiness":0.0,"country":"RS","date":1542389400,"humidity":80,"latitude":45,"longitude":20,"max_temp":4,"wind_speed":0},{"index":469,"city":"Rantepao","cloudiness":64.0,"country":"ID","date":1542390939,"humidity":95,"latitude":-2,"longitude":119,"max_temp":19,"wind_speed":0},{"index":470,"city":"Buala","cloudiness":44.0,"country":"SB","date":1542390939,"humidity":98,"latitude":-8,"longitude":159,"max_temp":26,"wind_speed":2},{"index":471,"city":"Kailua","cloudiness":20.0,"country":"US","date":1542387420,"humidity":81,"latitude":21,"longitude":-157,"max_temp":25,"wind_speed":3},{"index":472,"city":"North Battleford","cloudiness":40.0,"country":"CA","date":1542387600,"humidity":65,"latitude":52,"longitude":-108,"max_temp":-16,"wind_speed":3},{"index":473,"city":"Filadelfia","cloudiness":0.0,"country":"PY","date":1542390941,"humidity":60,"latitude":-22,"longitude":-60,"max_temp":34,"wind_speed":3},{"index":474,"city":"Matara","cloudiness":75.0,"country":"PE","date":1542387600,"humidity":47,"latitude":-13,"longitude":-72,"max_temp":15,"wind_speed":2},{"index":475,"city":"Dalby","cloudiness":0.0,"country":"AU","date":1542387600,"humidity":82,"latitude":-27,"longitude":151,"max_temp":18,"wind_speed":5},{"index":476,"city":"Kirakira","cloudiness":0.0,"country":"SB","date":1542390942,"humidity":100,"latitude":-10,"longitude":161,"max_temp":27,"wind_speed":2},{"index":477,"city":"Portobelo","cloudiness":75.0,"country":"PA","date":1542387600,"humidity":74,"latitude":9,"longitude":-79,"max_temp":30,"wind_speed":2},{"index":478,"city":"Arua","cloudiness":48.0,"country":"UG","date":1542390942,"humidity":85,"latitude":3,"longitude":30,"max_temp":22,"wind_speed":1},{"index":479,"city":"Traiguen","cloudiness":100.0,"country":"CL","date":1542390943,"humidity":85,"latitude":-38,"longitude":-72,"max_temp":13,"wind_speed":2},{"index":480,"city":"Vila do Maio","cloudiness":75.0,"country":"CV","date":1542387600,"humidity":61,"latitude":15,"longitude":-23,"max_temp":26,"wind_speed":6},{"index":481,"city":"Wetaskiwin","cloudiness":75.0,"country":"CA","date":1542387600,"humidity":78,"latitude":52,"longitude":-113,"max_temp":-13,"wind_speed":3},{"index":482,"city":"Atar","cloudiness":12.0,"country":"MR","date":1542390943,"humidity":24,"latitude":20,"longitude":-13,"max_temp":25,"wind_speed":1},{"index":483,"city":"Great Yarmouth","cloudiness":90.0,"country":"GB","date":1542388800,"humidity":100,"latitude":52,"longitude":1,"max_temp":9,"wind_speed":3},{"index":484,"city":"Port-Gentil","cloudiness":75.0,"country":"GA","date":1542387600,"humidity":74,"latitude":0,"longitude":8,"max_temp":29,"wind_speed":3},{"index":485,"city":"Parambu","cloudiness":12.0,"country":"BR","date":1542390945,"humidity":30,"latitude":-6,"longitude":-40,"max_temp":34,"wind_speed":4},{"index":486,"city":"Dhidhdhoo","cloudiness":100.0,"country":"MV","date":1542390945,"humidity":100,"latitude":6,"longitude":73,"max_temp":28,"wind_speed":4},{"index":487,"city":"Penha","cloudiness":20.0,"country":"BR","date":1542387600,"humidity":69,"latitude":-26,"longitude":-48,"max_temp":26,"wind_speed":6},{"index":488,"city":"Tocopilla","cloudiness":24.0,"country":"CL","date":1542390945,"humidity":95,"latitude":-22,"longitude":-70,"max_temp":18,"wind_speed":2},{"index":489,"city":"Binzhou","cloudiness":64.0,"country":"CN","date":1542390946,"humidity":71,"latitude":37,"longitude":117,"max_temp":-2,"wind_speed":1},{"index":490,"city":"Ciudad Guayana","cloudiness":64.0,"country":"VE","date":1542390946,"humidity":75,"latitude":8,"longitude":-62,"max_temp":29,"wind_speed":3},{"index":491,"city":"Amga","cloudiness":76.0,"country":"RU","date":1542390946,"humidity":73,"latitude":60,"longitude":131,"max_temp":-21,"wind_speed":1},{"index":492,"city":"Sao Gabriel da Cachoeira","cloudiness":40.0,"country":"BR","date":1542387600,"humidity":66,"latitude":0,"longitude":-67,"max_temp":32,"wind_speed":1},{"index":493,"city":"Trinidad","cloudiness":0.0,"country":"UY","date":1542387600,"humidity":53,"latitude":-33,"longitude":-56,"max_temp":22,"wind_speed":4},{"index":494,"city":"Zhoucheng","cloudiness":48.0,"country":"CN","date":1542390947,"humidity":91,"latitude":31,"longitude":119,"max_temp":9,"wind_speed":3},{"index":495,"city":"Mashhad","cloudiness":75.0,"country":"IR","date":1542389400,"humidity":57,"latitude":36,"longitude":59,"max_temp":11,"wind_speed":3},{"index":496,"city":"Skjervoy","cloudiness":75.0,"country":"NO","date":1542388800,"humidity":57,"latitude":70,"longitude":20,"max_temp":10,"wind_speed":8},{"index":497,"city":"Bagdarin","cloudiness":0.0,"country":"RU","date":1542390947,"humidity":58,"latitude":54,"longitude":113,"max_temp":-20,"wind_speed":1},{"index":498,"city":"Yaqui","cloudiness":40.0,"country":"MX","date":1542386520,"humidity":19,"latitude":27,"longitude":-110,"max_temp":22,"wind_speed":1},{"index":499,"city":"Kununurra","cloudiness":32.0,"country":"AU","date":1542389400,"humidity":83,"latitude":-15,"longitude":128,"max_temp":27,"wind_speed":2},{"index":500,"city":"Puerto Colombia","cloudiness":40.0,"country":"CO","date":1542387600,"humidity":70,"latitude":10,"longitude":-74,"max_temp":31,"wind_speed":3},{"index":501,"city":"Manta","cloudiness":76.0,"country":"RO","date":1542390948,"humidity":94,"latitude":45,"longitude":24,"max_temp":1,"wind_speed":0},{"index":502,"city":"Karawang","cloudiness":44.0,"country":"ID","date":1542390949,"humidity":95,"latitude":-6,"longitude":107,"max_temp":21,"wind_speed":1},{"index":503,"city":"Dingle","cloudiness":12.0,"country":"PH","date":1542390949,"humidity":97,"latitude":11,"longitude":122,"max_temp":23,"wind_speed":2},{"index":504,"city":"Nynashamn","cloudiness":0.0,"country":"SE","date":1542388800,"humidity":93,"latitude":58,"longitude":17,"max_temp":6,"wind_speed":2},{"index":505,"city":"Nevers","cloudiness":90.0,"country":"FR","date":1542389400,"humidity":100,"latitude":46,"longitude":3,"max_temp":10,"wind_speed":1},{"index":506,"city":"Vanavara","cloudiness":56.0,"country":"RU","date":1542390950,"humidity":53,"latitude":60,"longitude":102,"max_temp":-17,"wind_speed":3},{"index":507,"city":"Vilhena","cloudiness":56.0,"country":"BR","date":1542390951,"humidity":87,"latitude":-12,"longitude":-60,"max_temp":27,"wind_speed":1},{"index":508,"city":"Geraldton","cloudiness":90.0,"country":"CA","date":1542387600,"humidity":78,"latitude":49,"longitude":-86,"max_temp":-8,"wind_speed":5},{"index":509,"city":"Hanzhong","cloudiness":92.0,"country":"CN","date":1542390952,"humidity":100,"latitude":33,"longitude":107,"max_temp":1,"wind_speed":0},{"index":510,"city":"Arzgir","cloudiness":92.0,"country":"RU","date":1542390952,"humidity":96,"latitude":45,"longitude":44,"max_temp":2,"wind_speed":8},{"index":511,"city":"Novyy Urengoy","cloudiness":80.0,"country":"RU","date":1542390952,"humidity":78,"latitude":66,"longitude":76,"max_temp":-11,"wind_speed":6},{"index":512,"city":"Hay River","cloudiness":20.0,"country":"CA","date":1542387600,"humidity":77,"latitude":60,"longitude":-115,"max_temp":-18,"wind_speed":2},{"index":513,"city":"Lianzhou","cloudiness":92.0,"country":"CN","date":1542390953,"humidity":98,"latitude":24,"longitude":112,"max_temp":12,"wind_speed":1},{"index":514,"city":"Sakaiminato","cloudiness":75.0,"country":"JP","date":1542387600,"humidity":81,"latitude":35,"longitude":133,"max_temp":11,"wind_speed":2},{"index":515,"city":"Najran","cloudiness":40.0,"country":"SA","date":1542387600,"humidity":33,"latitude":17,"longitude":44,"max_temp":23,"wind_speed":3},{"index":516,"city":"Verkh-Chebula","cloudiness":48.0,"country":"RU","date":1542390953,"humidity":69,"latitude":56,"longitude":87,"max_temp":-16,"wind_speed":1},{"index":517,"city":"Villamontes","cloudiness":40.0,"country":"BO","date":1542387600,"humidity":49,"latitude":-21,"longitude":-63,"max_temp":32,"wind_speed":2},{"index":518,"city":"Okato","cloudiness":48.0,"country":"NZ","date":1542390953,"humidity":97,"latitude":-39,"longitude":173,"max_temp":13,"wind_speed":2},{"index":519,"city":"Jawhar","cloudiness":0.0,"country":"IN","date":1542390954,"humidity":58,"latitude":19,"longitude":73,"max_temp":22,"wind_speed":2},{"index":520,"city":"Mandera","cloudiness":36.0,"country":"ET","date":1542390955,"humidity":95,"latitude":3,"longitude":41,"max_temp":20,"wind_speed":1},{"index":521,"city":"Necochea","cloudiness":0.0,"country":"AR","date":1542390871,"humidity":64,"latitude":-38,"longitude":-58,"max_temp":19,"wind_speed":5},{"index":522,"city":"Palaikastron","cloudiness":88.0,"country":"GR","date":1542390955,"humidity":100,"latitude":35,"longitude":26,"max_temp":16,"wind_speed":2},{"index":523,"city":"Pokhara","cloudiness":0.0,"country":"NP","date":1542390955,"humidity":84,"latitude":28,"longitude":83,"max_temp":6,"wind_speed":0},{"index":524,"city":"Plaster Rock","cloudiness":90.0,"country":"CA","date":1542390060,"humidity":85,"latitude":46,"longitude":-67,"max_temp":-6,"wind_speed":3},{"index":525,"city":"Sao Jose da Coroa Grande","cloudiness":0.0,"country":"BR","date":1542390956,"humidity":70,"latitude":-8,"longitude":-35,"max_temp":28,"wind_speed":5},{"index":526,"city":"Alice Springs","cloudiness":92.0,"country":"AU","date":1542389400,"humidity":49,"latitude":-23,"longitude":133,"max_temp":21,"wind_speed":2}]}